Name,Address,Latitude,Longitude,Capacity (BTU/hr)
86th St Mechnical Ancillary Building,86th st and 2nd ave,40.778196,-73.951787,500
1790 2nd Ave Ancilary Building,93rd st and 2nd ave,40.782353,-73.948218,475
247 E 83rd St Ancillary Building,83rd st and 2nd Ave,40.776160,-73.953328,450
575 W 25th St Ancillary Building,25th st and 11th ave,40.750221,-74.005810,400
1383 2nd Ave Ancillary Building,73rd st and 2nd Ave,40.769132,-73.958499,430
167 E 63rd St Ancillary Building,63rd st and 3rd Ave,40.764408,-73.965173,445
1313 2nd Ave Ancillary Building,69th st and 2nd Ave,40.767141,-73.959931,550